{
  "cities": [
    {
      "cityName": "Madrid",
      "country": "Spain",
      "emoji": "ðŸ‡ªðŸ‡¸",
      "date": "2027-07-15T08:22:53.976Z",
      "notes": "",
      "position": {
        "lat": 40.46635901755316,
        "lng": -3.7133789062500004
      },
      "id": "17806751"
    },
    {
      "cityName": "Berlin",
      "country": "Germany",
      "emoji": "ðŸ‡©ðŸ‡ª",
      "date": "2027-02-12T09:24:11.863Z",
      "notes": "Amazing ðŸ˜ƒ",
      "position": {
        "lat": 52.53586782505711,
        "lng": 13.376933665713324
      },
      "id": "98443197"
    },
    {
      "id": "5cc7",
      "cityName": "Istanbul",
      "country": "Turkiye",
      "emoji": "ðŸ‡¹ðŸ‡·",
      "date": "2025-08-22T14:04:22.512Z",
      "notes": "nice trip",
      "position": {
        "lat": "41.178653972331674",
        "lng": "28.901369422674183"
      }
    },
    {
      "id": "0b91",
      "cityName": "Zaragoza",
      "country": "Spain",
      "emoji": "ðŸ‡ªðŸ‡¸",
      "date": "2025-08-24T12:23:33.844Z",
      "notes": "",
      "position": {
        "lat": "41.70734723312043",
        "lng": "-0.9646972301438407"
      }
    },
    {
      "id": "1edf",
      "cityName": "Malagon",
      "country": "Spain",
      "emoji": "ðŸ‡ªðŸ‡¸",
      "date": "2025-08-24T12:24:21.333Z",
      "notes": "",
      "position": {
        "lat": "39.201577145066864",
        "lng": "-3.820353154994414"
      }
    },
    {
      "id": "cb21",
      "cityName": "Rosell",
      "country": "Spain",
      "emoji": "ðŸ‡ªðŸ‡¸",
      "date": "2025-08-25T15:49:07.153Z",
      "notes": "",
      "position": {
        "lat": "40.624086790007915",
        "lng": "0.22696263484671692"
      }
    }
  ]
}